     4.00           OBSERVATION DATA    MIXED               RINEX VERSION / TYPE
TPS2RIN 1.0.28.3459 KB                  20230202 081422 UTC PGM / RUN BY / DATE
Win64 build Jun 01, 2022 (c) Topcon Positioning Systems     COMMENT
SRC: PPR1_290922.tps                                        COMMENT
OPT: -s 29092022d110000 -f 30092022d045959 -I 10 -v 4.00    COMMENT
OPT: -p PPR1_290922.ini                                     COMMENT
GMGD320 2022        NMBU                                    OBSERVER / AGENCY
01DWA4AJ08Y         TPS HIPER_VR        5.4+2105281211      REC # / TYPE / VERS
SN: 1451-12132                                              COMMENT
1451-12132          TPSHIPER_VR                             ANT # / TYPE
        1.2886        0.0000        0.0000                  ANTENNA: DELTA H/E/N
SSIR                                                        MARKER NAME
  3172370.6788   603854.2750  5481905.3621                  APPROX POSITION XYZ
  2022     9    29    11     0    0.0000000     GPS         TIME OF FIRST OBS
  2022     9    30     4    59   50.0000000     GPS         TIME OF LAST OBS
    10.000                                                  INTERVAL
  6480 EPOCHS                                               COMMENT
G    9 C1C L1C D1C C1W L1W D1W C2W L2W D2W                  SYS / # / OBS TYPES
R    6 C1C L1C D1C C2C L2C D2C                              SYS / # / OBS TYPES
E    6 C1X L1X D1X C5X L5X D5X                              SYS / # / OBS TYPES
C    9 C2I L2I D2I C5P L5P D5P C7I L7I D7I                  SYS / # / OBS TYPES
   106                                                      # OF SATELLITES
   G01   183   183   183   146   146   146   146   146   146PRN / # OF OBS
   G02  2875  2875  2875  2822  2822  2822  2819  2819  2819PRN / # OF OBS
   G03   557   557   557   556   556   556   556   556   556PRN / # OF OBS
   G04  1711  1711  1711  1705  1705  1705  1706  1706  1706PRN / # OF OBS
   G05  1640  1640  1640  1640  1640  1640  1640  1640  1640PRN / # OF OBS
   G06  2137  2137  2137  2135  2135  2135  2135  2135  2135PRN / # OF OBS
   G07  2646  2646  2646  2642  2642  2642  2642  2642  2642PRN / # OF OBS
   G08  1064  1064  1064  1023  1023  1023  1022  1022  1022PRN / # OF OBS
   G09  1788  1788  1788  1761  1761  1761  1756  1756  1756PRN / # OF OBS
   G10  1715  1715  1715  1707  1707  1707  1707  1707  1707PRN / # OF OBS
   G11  2660  2660  2660  2636  2636  2636  2638  2638  2638PRN / # OF OBS
   G12  2026  2026  2026  2026  2026  2026  2026  2026  2026PRN / # OF OBS
   G13  2041  2041  2041  1912  1912  1912  1909  1909  1909PRN / # OF OBS
   G14  1682  1682  1682  1641  1641  1641  1642  1642  1642PRN / # OF OBS
   G15  2301  2301  2301  2301  2301  2301  2301  2301  2301PRN / # OF OBS
   G16  2243  2243  2243  2172  2172  2172  2169  2169  2169PRN / # OF OBS
   G17  1399  1399  1399  1395  1395  1395  1395  1395  1395PRN / # OF OBS
   G18  2576  2576  2576  2561  2561  2561  2562  2562  2562PRN / # OF OBS
   G19  1783  1783  1783  1769  1769  1769  1769  1769  1769PRN / # OF OBS
   G20  2442  2442  2442  2376  2376  2376  2375  2375  2375PRN / # OF OBS
   G21   153   153   153   151   151   151   151   151   151PRN / # OF OBS
   G22  1270  1270  1270  1233  1233  1233  1232  1232  1232PRN / # OF OBS
   G23  2152  2152  2152  2127  2127  2127  2123  2123  2123PRN / # OF OBS
   G24  1911  1911  1911  1909  1909  1909  1908  1908  1908PRN / # OF OBS
   G25  1959  1959  1959  1927  1927  1927  1928  1928  1928PRN / # OF OBS
   G26  2281  2281  2281  2279  2279  2279  2279  2279  2279PRN / # OF OBS
   G27  1171  1171  1171  1160  1160  1160  1161  1161  1161PRN / # OF OBS
   G29  2428  2428  2428  2426  2426  2426  2427  2427  2427PRN / # OF OBS
   G30  2230  2230  2230  2216  2216  2216  2215  2215  2215PRN / # OF OBS
   G31  1681  1681  1681  1680  1680  1680  1680  1680  1680PRN / # OF OBS
   G32  1373  1373  1373  1350  1350  1350  1348  1348  1348PRN / # OF OBS
   R01  1676  1676  1676  1661  1661  1661                  PRN / # OF OBS
   R02  1192  1192  1192  1191  1191  1191                  PRN / # OF OBS
   R03  1635  1635  1635  1623  1623  1623                  PRN / # OF OBS
   R04  2156  2156  2156  2138  2138  2138                  PRN / # OF OBS
   R05  2440  2440  2440  2405  2405  2405                  PRN / # OF OBS
   R06  2233  2233  2233     0     0     0                  PRN / # OF OBS
   R07  2611  2611  2611  2605  2605  2605                  PRN / # OF OBS
   R08  2232  2232  2232  2232  2232  2232                  PRN / # OF OBS
   R09  1838  1838  1838  1836  1836  1836                  PRN / # OF OBS
   R10  1893  1893  1893     0     0     0                  PRN / # OF OBS
   R11  1930  1930  1930  1914  1914  1914                  PRN / # OF OBS
   R12  2381  2381  2381  2374  2374  2374                  PRN / # OF OBS
   R13  2505  2505  2505  2505  2505  2505                  PRN / # OF OBS
   R14  2762  2762  2762  2750  2750  2750                  PRN / # OF OBS
   R15  2480  2480  2480  2473  2473  2473                  PRN / # OF OBS
   R17  1366  1366  1366  1343  1343  1343                  PRN / # OF OBS
   R18  1111  1111  1111  1102  1102  1102                  PRN / # OF OBS
   R19  1480  1480  1480  1477  1477  1477                  PRN / # OF OBS
   R20  2084  2084  2084  2076  2076  2076                  PRN / # OF OBS
   R21  2630  2630  2630  2624  2624  2624                  PRN / # OF OBS
   R23  2486  2486  2486     0     0     0                  PRN / # OF OBS
   R24  1835  1835  1835  1774  1774  1774                  PRN / # OF OBS
   E01     4     4     4     4     4     4                  PRN / # OF OBS
   E02  2104  2104  2104  2102  2102  2102                  PRN / # OF OBS
   E03  2403  2403  2403  2395  2395  2395                  PRN / # OF OBS
   E04  1081  1081  1081  1081  1081  1081                  PRN / # OF OBS
   E05  1376  1376  1376  1374  1374  1374                  PRN / # OF OBS
   E07  2553  2553  2553  2553  2553  2553                  PRN / # OF OBS
   E08  3114  3114  3114  3114  3114  3114                  PRN / # OF OBS
   E09  1004  1004  1004  1002  1002  1002                  PRN / # OF OBS
   E10   334   334   334   326   326   326                  PRN / # OF OBS
   E11   182   182   182   178   178   178                  PRN / # OF OBS
   E12   507   507   507   506   506   506                  PRN / # OF OBS
   E13  3742  3742  3742  3741  3741  3741                  PRN / # OF OBS
   E15  2995  2995  2995  2995  2995  2995                  PRN / # OF OBS
   E19  1496  1496  1496  1496  1496  1496                  PRN / # OF OBS
   E21  2451  2451  2451  2395  2395  2395                  PRN / # OF OBS
   E24  1658  1658  1658  1643  1643  1643                  PRN / # OF OBS
   E25  1813  1813  1813  1813  1813  1813                  PRN / # OF OBS
   E26  2779  2779  2779  2776  2776  2776                  PRN / # OF OBS
   E27  2591  2591  2591  2591  2591  2591                  PRN / # OF OBS
   E30  2417  2417  2417  2417  2417  2417                  PRN / # OF OBS
   E31  1918  1918  1918  1916  1916  1916                  PRN / # OF OBS
   E33  1723  1723  1723  1718  1718  1718                  PRN / # OF OBS
   E34  1849  1849  1849  1826  1826  1826                  PRN / # OF OBS
   E36   779   779   779   762   762   762                  PRN / # OF OBS
   C05  4625  4625  4625     0     0     0  4625  4625  4625PRN / # OF OBS
   C06   759   759   759     0     0     0   759   759   759PRN / # OF OBS
   C07  2503  2503  2503     0     0     0  2498  2498  2498PRN / # OF OBS
   C08  2733  2733  2733     0     0     0  2733  2733  2733PRN / # OF OBS
   C09  1496  1496  1496     0     0     0  1496  1496  1496PRN / # OF OBS
   C10  2957  2957  2957     0     0     0  2957  2957  2957PRN / # OF OBS
   C11  2694  2694  2694     0     0     0  2689  2689  2689PRN / # OF OBS
   C12  1962  1962  1962     0     0     0  1962  1962  1962PRN / # OF OBS
   C13  2621  2621  2621     0     0     0  2621  2621  2621PRN / # OF OBS
   C14  2913  2913  2913     0     0     0  2913  2913  2913PRN / # OF OBS
   C16   519   519   519     0     0     0   519   519   519PRN / # OF OBS
   C19   717   717   717   716   716   716     0     0     0PRN / # OF OBS
   C20   931   931   931   931   931   931     0     0     0PRN / # OF OBS
   C21  2031  2031  2031  2021  2021  2021     0     0     0PRN / # OF OBS
   C22  1103  1103  1103  1103  1103  1103     0     0     0PRN / # OF OBS
   C23  2215  2215  2215  2215  2215  2215     0     0     0PRN / # OF OBS
   C24  2206  2206  2206  2191  2191  2191     0     0     0PRN / # OF OBS
   C25  2293  2293  2293  2293  2293  2293     0     0     0PRN / # OF OBS
   C26  2043  2043  2043  2043  2043  2043     0     0     0PRN / # OF OBS
   C27  2082  2082  2082  2082  2082  2082     0     0     0PRN / # OF OBS
   C28  2999  2999  2999  2989  2989  2989     0     0     0PRN / # OF OBS
   C29   364   364   364   361   361   361     0     0     0PRN / # OF OBS
   C30   390   390   390   385   385   385     0     0     0PRN / # OF OBS
   C32  1498  1498  1498  1498  1498  1498     0     0     0PRN / # OF OBS
   C33  2131  2131  2131  2131  2131  2131     0     0     0PRN / # OF OBS
   C34  2393  2393  2393  2393  2393  2393     0     0     0PRN / # OF OBS
   C35   775   775   775   763   763   763     0     0     0PRN / # OF OBS
   C36  2603  2603  2603  2603  2603  2603     0     0     0PRN / # OF OBS
   C37  2034  2034  2034  2034  2034  2034     0     0     0PRN / # OF OBS
 22 R01  1 R02 -4 R03  5 R04  6 R05  1 R06 -4 R07  5 R08  6 GLONASS SLOT / FRQ #
    R09 -2 R10 -7 R11  0 R12 -1 R13 -2 R14 -7 R15  0 R17  4 GLONASS SLOT / FRQ #
    R18 -3 R19  3 R20  2 R21  4 R23  3 R24  2               GLONASS SLOT / FRQ #
    18    18  2185     7GPS                                 LEAP SECONDS
                                                            END OF HEADER
> 2022 09 29 11 00  0.0000000  0 1
C16  39419919.160   205269868.478 4      -580.567                                                    39419933.700   158727697.999 5      -448.931
