     3.05           OBSERVATION DATA    M                   RINEX VERSION / TYPE
TPS2RIN 1.0.28.3459 Kamilla Brynildsen  20221006 134421 UTC PGM / RUN BY / DATE
Win64 build Jun 01, 2022 (c) Topcon Positioning Systems     COMMENT
SRC: PPR3_290922.tps                                        COMMENT
OPT: -s 29092022d110000 -f 30092022d045959 -I 10            COMMENT
OPT: -p PPR3_290922.ini                                     COMMENT
GMGD320 2022        NMBU                                    OBSERVER / AGENCY
01FOIKIJBB6         TPS HIPER_VR        5.4+2105281211      REC # / TYPE / VERS
SN: 1451-12216                                              COMMENT
1451-12216          TPSHIPER_VR     NONE                    ANT # / TYPE
        1.3142        0.0000        0.0000                  ANTENNA: DELTA H/E/N
K004                                                        MARKER NAME
  3172507.4901   603208.4428  5481884.1614                  APPROX POSITION XYZ
  2022     9    29    11     0   50.0000001     GPS         TIME OF FIRST OBS
  2022     9    30     4    59   50.0000010     GPS         TIME OF LAST OBS
    10.000                                                  INTERVAL
  6480 EPOCHS                                               COMMENT
G   27 C1C L1C D1C C1W L1W D1W C1X L1X D1X C1Y L1Y D1Y C1Z  SYS / # / OBS TYPES
       C2C L2C D2C C2W L2W D2W C2X L2X D2X C2Y L2Y D2Y C2Z  SYS / # / OBS TYPES
       C3C                                                  SYS / # / OBS TYPES
R    6 C1C L1C D1C C2C L2C D2C                              SYS / # / OBS TYPES
E    6 C1X L1X D1X C5X L5X D5X                              SYS / # / OBS TYPES
C    9 C2I L2I D2I C5P L5P D5P C7I L7I D7I                  SYS / # / OBS TYPES
   102                                                      # OF SATELLITES
   G02  2134  2134  2134  2021  2021  2021  2024  2024  2024PRN / # OF OBS
   G03   724   724   724   724   724   724   724   724   724PRN / # OF OBS
   G04  1565  1565  1565  1545  1545  1545  1545  1545  1545PRN / # OF OBS
   G05  1365  1365  1365  1360  1360  1360  1360  1360  1360PRN / # OF OBS
   G06  1585  1585  1585  1585  1585  1585  1585  1585  1585PRN / # OF OBS
   G07  2279  2279  2279  2256  2256  2256  2255  2255  2255PRN / # OF OBS
   G08   560   560   560   556   556   556   555   555   555PRN / # OF OBS
   G09  1900  1900  1900  1892  1892  1892  1893  1893  1893PRN / # OF OBS
   G10  1454  1454  1454  1403  1403  1403  1404  1404  1404PRN / # OF OBS
   G11  2037  2037  2037  1981  1981  1981  1984  1984  1984PRN / # OF OBS
   G12  1879  1879  1879  1879  1879  1879  1879  1879  1879PRN / # OF OBS
   G13  1812  1812  1812  1703  1703  1703  1692  1692  1692PRN / # OF OBS
   G14  1101  1101  1101  1004  1004  1004  1002  1002  1002PRN / # OF OBS
   G15  1758  1758  1758  1744  1744  1744  1746  1746  1746PRN / # OF OBS
   G16  1700  1700  1700  1659  1659  1659  1657  1657  1657PRN / # OF OBS
   G17   869   869   869   859   859   859   859   859   859PRN / # OF OBS
   G18  2215  2215  2215  2153  2153  2153  2154  2154  2154PRN / # OF OBS
   G19  1226  1226  1226  1168  1168  1168  1164  1164  1164PRN / # OF OBS
   G20  1786  1786  1786  1736  1736  1736  1739  1739  1739PRN / # OF OBS
   G21   149   149   149   148   148   148   148   148   148PRN / # OF OBS
   G22  1111  1111  1111  1073  1073  1073  1069  1069  1069PRN / # OF OBS
   G23  1931  1931  1931  1858  1858  1858  1851  1851  1851PRN / # OF OBS
   G24  1685  1685  1685  1680  1680  1680  1680  1680  1680PRN / # OF OBS
   G25  1940  1940  1940  1939  1939  1939  1939  1939  1939PRN / # OF OBS
   G26  1696  1696  1696  1694  1694  1694  1694  1694  1694PRN / # OF OBS
   G27  1067  1067  1067  1067  1067  1067  1067  1067  1067PRN / # OF OBS
   G29  2204  2204  2204  2197  2197  2197  2197  2197  2197PRN / # OF OBS
   G30  2104  2104  2104  2088  2088  2088  2088  2088  2088PRN / # OF OBS
   G31  1378  1378  1378  1378  1378  1378  1378  1378  1378PRN / # OF OBS
   G32  1240  1240  1240  1204  1204  1204  1205  1205  1205PRN / # OF OBS
   R01  1585  1585  1585  1556  1556  1556                  PRN / # OF OBS
   R02  1158  1158  1158  1144  1144  1144                  PRN / # OF OBS
   R03  1431  1431  1431  1421  1421  1421                  PRN / # OF OBS
   R04  1907  1907  1907  1857  1857  1857                  PRN / # OF OBS
   R05  2121  2121  2121  2091  2091  2091                  PRN / # OF OBS
   R06  1338  1338  1338     0     0     0                  PRN / # OF OBS
   R07  1743  1743  1743  1722  1722  1722                  PRN / # OF OBS
   R08  1879  1879  1879  1848  1848  1848                  PRN / # OF OBS
   R09  1722  1722  1722  1719  1719  1719                  PRN / # OF OBS
   R10  1810  1810  1810     0     0     0                  PRN / # OF OBS
   R11  1821  1821  1821  1813  1813  1813                  PRN / # OF OBS
   R12  1695  1695  1695  1649  1649  1649                  PRN / # OF OBS
   R13  1539  1539  1539  1511  1511  1511                  PRN / # OF OBS
   R14  2215  2215  2215  2166  2166  2166                  PRN / # OF OBS
   R15  2038  2038  2038  1994  1994  1994                  PRN / # OF OBS
   R17   632   632   632   602   602   602                  PRN / # OF OBS
   R18   398   398   398   371   371   371                  PRN / # OF OBS
   R19   931   931   931   931   931   931                  PRN / # OF OBS
   R20  1567  1567  1567  1567  1567  1567                  PRN / # OF OBS
   R21  2204  2204  2204  2168  2168  2168                  PRN / # OF OBS
   R23  2019  2019  2019     0     0     0                  PRN / # OF OBS
   R24  1465  1465  1465  1441  1441  1441                  PRN / # OF OBS
   E01     8     8     8     7     7     7                  PRN / # OF OBS
   E02  1816  1816  1816  1808  1808  1808                  PRN / # OF OBS
   E03  2116  2116  2116  2116  2116  2116                  PRN / # OF OBS
   E04   913   913   913   913   913   913                  PRN / # OF OBS
   E05  1439  1439  1439  1439  1439  1439                  PRN / # OF OBS
   E07  2264  2264  2264  2263  2263  2263                  PRN / # OF OBS
   E08  2468  2468  2468  2455  2455  2455                  PRN / # OF OBS
   E09   779   779   779   772   772   772                  PRN / # OF OBS
   E10    56    56    56    47    47    47                  PRN / # OF OBS
   E12   278   278   278   278   278   278                  PRN / # OF OBS
   E13  3339  3339  3339  3330  3330  3330                  PRN / # OF OBS
   E15  2133  2133  2133  2121  2121  2121                  PRN / # OF OBS
   E19  1297  1297  1297  1297  1297  1297                  PRN / # OF OBS
   E21  2268  2268  2268  2262  2262  2262                  PRN / # OF OBS
   E24  1067  1067  1067  1059  1059  1059                  PRN / # OF OBS
   E25  1054  1054  1054  1053  1053  1053                  PRN / # OF OBS
   E26  2491  2491  2491  2488  2488  2488                  PRN / # OF OBS
   E27  2380  2380  2380  2377  2377  2377                  PRN / # OF OBS
   E30  2340  2340  2340  2338  2338  2338                  PRN / # OF OBS
   E31  1188  1188  1188  1185  1185  1185                  PRN / # OF OBS
   E33  1520  1520  1520  1507  1507  1507                  PRN / # OF OBS
   E34  1201  1201  1201  1194  1194  1194                  PRN / # OF OBS
   E36    53    53    53    43    43    43                  PRN / # OF OBS
   C05   605   605   605     0     0     0   605   605   605PRN / # OF OBS
   C07   930   930   930     0     0     0   930   930   930PRN / # OF OBS
   C08   938   938   938     0     0     0   938   938   938PRN / # OF OBS
   C09   114   114   114     0     0     0   114   114   114PRN / # OF OBS
   C10  1682  1682  1682     0     0     0  1682  1682  1682PRN / # OF OBS
   C11  1876  1876  1876     0     0     0  1867  1867  1867PRN / # OF OBS
   C12  1254  1254  1254     0     0     0  1253  1253  1253PRN / # OF OBS
   C13  1444  1444  1444     0     0     0  1428  1428  1428PRN / # OF OBS
   C14   324   324   324     0     0     0   324   324   324PRN / # OF OBS
   C19   688   688   688   684   684   684     0     0     0PRN / # OF OBS
   C20   783   783   783   783   783   783     0     0     0PRN / # OF OBS
   C21  1707  1707  1707  1702  1702  1702     0     0     0PRN / # OF OBS
   C22  1163  1163  1163  1156  1156  1156     0     0     0PRN / # OF OBS
   C23  2089  2089  2089  2085  2085  2085     0     0     0PRN / # OF OBS
   C24  2082  2082  2082  2081  2081  2081     0     0     0PRN / # OF OBS
   C25  2199  2199  2199  2195  2195  2195     0     0     0PRN / # OF OBS
   C26  1898  1898  1898  1888  1888  1888     0     0     0PRN / # OF OBS
   C27  1998  1998  1998  1985  1985  1985     0     0     0PRN / # OF OBS
   C28  2705  2705  2705  2693  2693  2693     0     0     0PRN / # OF OBS
   C29    28    28    28    23    23    23     0     0     0PRN / # OF OBS
   C30   963   963   963   953   953   953     0     0     0PRN / # OF OBS
   C32  1385  1385  1385  1383  1383  1383     0     0     0PRN / # OF OBS
   C33  2298  2298  2298  2296  2296  2296     0     0     0PRN / # OF OBS
   C34  1744  1744  1744  1739  1739  1739     0     0     0PRN / # OF OBS
   C35   287   287   287   276   276   276     0     0     0PRN / # OF OBS
   C36  1960  1960  1960  1950  1950  1950     0     0     0PRN / # OF OBS
   C37  1806  1806  1806  1806  1806  1806     0     0     0PRN / # OF OBS
G L1C                                                       SYS / PHASE SHIFT
G L1W -0.25000                                              SYS / PHASE SHIFT
G L2W  0.00000                                              SYS / PHASE SHIFT
R L1C                                                       SYS / PHASE SHIFT
R L2C                                                       SYS / PHASE SHIFT
E L1X  0.00000                                              SYS / PHASE SHIFT
E L5X  0.00000                                              SYS / PHASE SHIFT
C L2I                                                       SYS / PHASE SHIFT
C L5P  0.00000                                              SYS / PHASE SHIFT
C L7I                                                       SYS / PHASE SHIFT
 22 R01  1 R02 -4 R03  5 R04  6 R05  1 R06 -4 R07  5 R08  6 GLONASS SLOT / FRQ #
    R09 -2 R10 -7 R11  0 R12 -1 R13 -2 R14 -7 R15  0 R17  4 GLONASS SLOT / FRQ #
    R18 -3 R19  3 R20  2 R21  4 R23  3 R24  2               GLONASS SLOT / FRQ #
                                                            GLONASS COD/PHS/BIS
    18    18  2185     7GPS                                 LEAP SECONDS
                                                            END OF HEADER
> 2022 09 29 11 00  0.0000000  0 1
C12  23486627.580   122301020.099 7     -1941.871                                                    23486632.140    94570913.809 8     -1501.578
