     4.00           OBSERVATION DATA    MIXED               RINEX VERSION / TYPE
TPS2RIN 1.0.28.3459 KB                  20230202 081422 UTC PGM / RUN BY / DATE
Win64 build Jun 01, 2022 (c) Topcon Positioning Systems     COMMENT
SRC: PPR1_290922.tps                                        COMMENT
OPT: -s 29092022d110000 -f 30092022d045959 -I 10 -v 4.00    COMMENT
OPT: -p PPR1_290922.ini                                     COMMENT
GMGD320 2022        NMBU                                    OBSERVER / AGENCY
01DWA4AJ08Y         TPS HIPER_VR        5.4+2105281211      REC # / TYPE / VERS
SN: 1451-12132                                              COMMENT
1451-12132          TPSHIPER_VR                             ANT # / TYPE
        1.2886        0.0000        0.0000                  ANTENNA: DELTA H/E/N
SSIR                                                        MARKER NAME
  3172370.6788   603854.2750  5481905.3621                  APPROX POSITION XYZ
  2022     9    29    11     0    0.0000000     GPS         TIME OF FIRST OBS
  2022     9    30     4    59   50.0000000     GPS         TIME OF LAST OBS
    10.000                                                  INTERVAL
  6480 EPOCHS                                               COMMENT
G    9 C1C L1C D1C C1W L1W D1W C2W L2W D2W                  SYS / # / OBS TYPES
R    6 C1C L1C D1C C2C L2C D2C                              SYS / # / OBS TYPES
E    6 C1X L1X D1X C5X L5X D5X                              SYS / # / OBS TYPES
C    9 C2I L2I D2I C5P L5P D5P C7I L7I D7I                  SYS / # / OBS TYPES
   106                                                      # OF SATELLITES
   G01   183   183   183   146   146   146   146   146   146PRN / # OF OBS
   G02  2875  2875  2875  2822  2822  2822  2819  2819  2819PRN / # OF OBS
   G03   557   557   557   556   556   556   556   556   556PRN / # OF OBS
   G04  1711  1711  1711  1705  1705  1705  1706  1706  1706PRN / # OF OBS
   G05  1640  1640  1640  1640  1640  1640  1640  1640  1640PRN / # OF OBS
   G06  2137  2137  2137  2135  2135  2135  2135  2135  2135PRN / # OF OBS
   G07  2646  2646  2646  2642  2642  2642  2642  2642  2642PRN / # OF OBS
   G08  1064  1064  1064  1023  1023  1023  1022  1022  1022PRN / # OF OBS
   G09  1788  1788  1788  1761  1761  1761  1756  1756  1756PRN / # OF OBS
   G10  1715  1715  1715  1707  1707  1707  1707  1707  1707PRN / # OF OBS
   G11  2660  2660  2660  2636  2636  2636  2638  2638  2638PRN / # OF OBS
   G12  2026  2026  2026  2026  2026  2026  2026  2026  2026PRN / # OF OBS
   G13  2041  2041  2041  1912  1912  1912  1909  1909  1909PRN / # OF OBS
   G14  1682  1682  1682  1641  1641  1641  1642  1642  1642PRN / # OF OBS
   G15  2301  2301  2301  2301  2301  2301  2301  2301  2301PRN / # OF OBS
   G16  2243  2243  2243  2172  2172  2172  2169  2169  2169PRN / # OF OBS
   G17  1399  1399  1399  1395  1395  1395  1395  1395  1395PRN / # OF OBS
   G18  2576  2576  2576  2561  2561  2561  2562  2562  2562PRN / # OF OBS
   G19  1783  1783  1783  1769  1769  1769  1769  1769  1769PRN / # OF OBS
   G20  2442  2442  2442  2376  2376  2376  2375  2375  2375PRN / # OF OBS
   G21   153   153   153   151   151   151   151   151   151PRN / # OF OBS
   G22  1270  1270  1270  1233  1233  1233  1232  1232  1232PRN / # OF OBS
   G23  2152  2152  2152  2127  2127  2127  2123  2123  2123PRN / # OF OBS
   G24  1911  1911  1911  1909  1909  1909  1908  1908  1908PRN / # OF OBS
   G25  1959  1959  1959  1927  1927  1927  1928  1928  1928PRN / # OF OBS
   G26  2281  2281  2281  2279  2279  2279  2279  2279  2279PRN / # OF OBS
   G27  1171  1171  1171  1160  1160  1160  1161  1161  1161PRN / # OF OBS
   G29  2428  2428  2428  2426  2426  2426  2427  2427  2427PRN / # OF OBS
   G30  2230  2230  2230  2216  2216  2216  2215  2215  2215PRN / # OF OBS
   G31  1681  1681  1681  1680  1680  1680  1680  1680  1680PRN / # OF OBS
   G32  1373  1373  1373  1350  1350  1350  1348  1348  1348PRN / # OF OBS
   R01  1676  1676  1676  1661  1661  1661                  PRN / # OF OBS
   R02  1192  1192  1192  1191  1191  1191                  PRN / # OF OBS
   R03  1635  1635  1635  1623  1623  1623                  PRN / # OF OBS
   R04  2156  2156  2156  2138  2138  2138                  PRN / # OF OBS
   R05  2440  2440  2440  2405  2405  2405                  PRN / # OF OBS
   R06  2233  2233  2233     0     0     0                  PRN / # OF OBS
   R07  2611  2611  2611  2605  2605  2605                  PRN / # OF OBS
   R08  2232  2232  2232  2232  2232  2232                  PRN / # OF OBS
   R09  1838  1838  1838  1836  1836  1836                  PRN / # OF OBS
   R10  1893  1893  1893     0     0     0                  PRN / # OF OBS
   R11  1930  1930  1930  1914  1914  1914                  PRN / # OF OBS
   R12  2381  2381  2381  2374  2374  2374                  PRN / # OF OBS
   R13  2505  2505  2505  2505  2505  2505                  PRN / # OF OBS
   R14  2762  2762  2762  2750  2750  2750                  PRN / # OF OBS
   R15  2480  2480  2480  2473  2473  2473                  PRN / # OF OBS
   R17  1366  1366  1366  1343  1343  1343                  PRN / # OF OBS
   R18  1111  1111  1111  1102  1102  1102                  PRN / # OF OBS
   R19  1480  1480  1480  1477  1477  1477                  PRN / # OF OBS
   R20  2084  2084  2084  2076  2076  2076                  PRN / # OF OBS
   R21  2630  2630  2630  2624  2624  2624                  PRN / # OF OBS
   R23  2486  2486  2486     0     0     0                  PRN / # OF OBS
   R24  1835  1835  1835  1774  1774  1774                  PRN / # OF OBS
   E01     4     4     4     4     4     4                  PRN / # OF OBS
   E02  2104  2104  2104  2102  2102  2102                  PRN / # OF OBS
   E03  2403  2403  2403  2395  2395  2395                  PRN / # OF OBS
   E04  1081  1081  1081  1081  1081  1081                  PRN / # OF OBS
   E05  1376  1376  1376  1374  1374  1374                  PRN / # OF OBS
   E07  2553  2553  2553  2553  2553  2553                  PRN / # OF OBS
   E08  3114  3114  3114  3114  3114  3114                  PRN / # OF OBS
   E09  1004  1004  1004  1002  1002  1002                  PRN / # OF OBS
   E10   334   334   334   326   326   326                  PRN / # OF OBS
   E11   182   182   182   178   178   178                  PRN / # OF OBS
   E12   507   507   507   506   506   506                  PRN / # OF OBS
   E13  3742  3742  3742  3741  3741  3741                  PRN / # OF OBS
   E15  2995  2995  2995  2995  2995  2995                  PRN / # OF OBS
   E19  1496  1496  1496  1496  1496  1496                  PRN / # OF OBS
   E21  2451  2451  2451  2395  2395  2395                  PRN / # OF OBS
   E24  1658  1658  1658  1643  1643  1643                  PRN / # OF OBS
   E25  1813  1813  1813  1813  1813  1813                  PRN / # OF OBS
   E26  2779  2779  2779  2776  2776  2776                  PRN / # OF OBS
   E27  2591  2591  2591  2591  2591  2591                  PRN / # OF OBS
   E30  2417  2417  2417  2417  2417  2417                  PRN / # OF OBS
   E31  1918  1918  1918  1916  1916  1916                  PRN / # OF OBS
   E33  1723  1723  1723  1718  1718  1718                  PRN / # OF OBS
   E34  1849  1849  1849  1826  1826  1826                  PRN / # OF OBS
   E36   779   779   779   762   762   762                  PRN / # OF OBS
   C05  4625  4625  4625     0     0     0  4625  4625  4625PRN / # OF OBS
   C06   759   759   759     0     0     0   759   759   759PRN / # OF OBS
   C07  2503  2503  2503     0     0     0  2498  2498  2498PRN / # OF OBS
   C08  2733  2733  2733     0     0     0  2733  2733  2733PRN / # OF OBS
   C09  1496  1496  1496     0     0     0  1496  1496  1496PRN / # OF OBS
   C10  2957  2957  2957     0     0     0  2957  2957  2957PRN / # OF OBS
   C11  2694  2694  2694     0     0     0  2689  2689  2689PRN / # OF OBS
   C12  1962  1962  1962     0     0     0  1962  1962  1962PRN / # OF OBS
   C13  2621  2621  2621     0     0     0  2621  2621  2621PRN / # OF OBS
   C14  2913  2913  2913     0     0     0  2913  2913  2913PRN / # OF OBS
   C16   519   519   519     0     0     0   519   519   519PRN / # OF OBS
   C19   717   717   717   716   716   716     0     0     0PRN / # OF OBS
   C20   931   931   931   931   931   931     0     0     0PRN / # OF OBS
   C21  2031  2031  2031  2021  2021  2021     0     0     0PRN / # OF OBS
   C22  1103  1103  1103  1103  1103  1103     0     0     0PRN / # OF OBS
   C23  2215  2215  2215  2215  2215  2215     0     0     0PRN / # OF OBS
   C24  2206  2206  2206  2191  2191  2191     0     0     0PRN / # OF OBS
   C25  2293  2293  2293  2293  2293  2293     0     0     0PRN / # OF OBS
   C26  2043  2043  2043  2043  2043  2043     0     0     0PRN / # OF OBS
   C27  2082  2082  2082  2082  2082  2082     0     0     0PRN / # OF OBS
   C28  2999  2999  2999  2989  2989  2989     0     0     0PRN / # OF OBS
   C29   364   364   364   361   361   361     0     0     0PRN / # OF OBS
   C30   390   390   390   385   385   385     0     0     0PRN / # OF OBS
   C32  1498  1498  1498  1498  1498  1498     0     0     0PRN / # OF OBS
   C33  2131  2131  2131  2131  2131  2131     0     0     0PRN / # OF OBS
   C34  2393  2393  2393  2393  2393  2393     0     0     0PRN / # OF OBS
   C35   775   775   775   763   763   763     0     0     0PRN / # OF OBS
   C36  2603  2603  2603  2603  2603  2603     0     0     0PRN / # OF OBS
   C37  2034  2034  2034  2034  2034  2034     0     0     0PRN / # OF OBS
 22 R01  1 R02 -4 R03  5 R04  6 R05  1 R06 -4 R07  5 R08  6 GLONASS SLOT / FRQ #
    R09 -2 R10 -7 R11  0 R12 -1 R13 -2 R14 -7 R15  0 R17  4 GLONASS SLOT / FRQ #
    R18 -3 R19  3 R20  2 R21  4 R23  3 R24  2               GLONASS SLOT / FRQ #
    18    18  2185     7GPS                                 LEAP SECONDS
                                                            END OF HEADER
> 2022 09 29 11 00  0.0000000  0 33
C34  23316195.160   121413546.357 8        96.847    23316199.420    91497776.815 8        72.984
G06  21717776.080   114127705.625 8      2605.982    21717776.520   114127705.625 6      2605.982    21717782.580    88930698.108 6      2030.635
G03  21484229.140   112900365.895 8     -1913.245    21484229.400   112900365.895 8     -1913.245    21484235.760    87974317.471 8     -1490.840
E34  24449838.900   128484758.655 8     -1514.702    24449845.760    95946424.903 1     -1131.108
R18  22024006.120   117565599.045 7     -3713.289    22024013.600    91439912.523 7     -2888.114
R13  23186178.620   123812916.909 5      4400.592    23186187.480    96298953.538 6      3422.683
R03  19429527.180   104007778.778 8      -634.718    19429530.820    80894950.177 8      -493.669
R02  22746908.440   121381818.580 7     -3316.261    22746915.660    94408086.104 7     -2579.314
E09  25883346.980   136017884.725 7     -1884.900    25883354.600   101571812.417 1     -1407.555
R04  20345042.480   108946841.225 8      3124.919    20345046.380    84736457.622 8      2430.493
R11  23273558.460   124366832.160 6     -2292.273    23273565.060    96729766.191 6     -1782.879
E05  23506916.600   123529681.785 8       676.291    23506922.420    92246217.991 1       505.022
G01  24645259.180   129511640.156 5     -3542.428    24645259.940   129511640.156 5     -3542.428    24645271.660   100918152.293 5     -2760.334
R19  19912413.740   106517945.159 6      -753.819    19912418.580    82847331.852 7      -586.304
C36  25461731.920   132585951.125 7      3251.188    25461746.240    99917400.050 8      2450.109
C11  23847003.460   124177618.021 7      1600.341                                                    23847007.620    96022032.343 8      1237.485
G19  22640369.060   118975921.998 7     -1867.501    22640368.440   118975921.995 5     -1867.501    22640371.680    92708510.836 5     -1455.196
G04  20613269.720   108323485.050 8      1365.482    20613269.300   108323485.055 7      1365.482    20613273.280    84407925.698 7      1064.012
C16  39419919.160   205269868.478 4      -580.567                                                    39419933.700   158727697.999 5      -448.931
C22  21989639.680   114505823.052 8      -164.395    21989639.180    86292063.714 8      -123.888
E15  24104780.820   126671482.538 7      1492.666    24104787.780    94592371.561 1      1114.653
G31  23139798.860   121600462.922 7     -1371.304    23139798.920   121600462.919 6     -1371.304    23139804.460    94753616.948 6     -1068.549
G11  24361817.160   128022211.536 7      4035.838    24361817.340   128022211.528 5      4035.838    24361822.680    99757601.119 5      3144.809
C19  25109586.960   130752173.021 7     -2477.324    25109592.600    98535387.398 7     -1866.922
C21  23241286.680   121023505.140 8      2816.181    23241288.560    91203846.458 8      2122.286
C12  23551844.400   122640610.296 7     -1569.610                                                    23551848.040    94833505.674 8     -1213.722
C05  40406565.980   210407585.902 6       449.516                                                    40406571.740   162700501.890 6       347.594
E03  25856091.120   135874715.293 7      3144.231    25856099.360   101464927.504 8      2347.965
R20  21971328.080   117490582.673 6      3997.018    21971334.940    91381588.742 6      3108.791
C09  38281383.280   199341196.457 7       108.932                                                    38281386.820   154143270.072 8        84.233
R12  21868726.720   116818880.414 8      1575.548    21868732.920    90859154.469 7      1225.426
C06  38555762.720   200769953.291 7      -436.706                                                    38555764.440   155248066.017 7      -337.689
G09  22148738.300   116392448.791 8      3517.160    22148738.220   116392448.791 8      3517.160    22148744.780    90695436.480 8      2740.644
> 2022 09 29 11 00 10.0000000  0 34
C34  23316015.020   121412607.175 8        90.540    23316019.040    91497069.042 8        68.231
G06  21712821.620   114101671.615 7      2600.419    21712822.400   114101671.617 6      2600.419    21712828.400    88910411.868 6      2026.300
G03  21487873.940   112919517.144 8     -1917.377    21487873.980   112919517.149 8     -1917.377    21487880.160    87989240.510 8     -1494.060
E34  24452724.940   128499924.027 8     -1518.832    24452731.360    95957749.673 1     -1134.193
R18  22030966.460   117602750.265 7     -3717.336    22030973.780    91468807.871 7     -2891.262
R13  23177942.200   123768934.151 5      4395.836    23177950.540    96264744.793 6      3418.983
R03  19430718.820   104014155.962 8      -641.152    19430721.760    80899910.198 8      -498.674
R02  22753124.760   121414988.904 8     -3318.252    22753131.560    94433885.194 7     -2580.863
E09  25886936.020   136036743.271 7     -1887.301    25886943.100   101585895.071 1     -1409.349
R04  20339211.960   108915616.763 8      3119.552    20339215.600    84712171.938 8      2426.318
R11  23277854.560   124389787.345 6     -2299.246    23277861.360    96747620.210 6     -1788.302
E05  23505633.120   123522938.030 8       672.017    23505639.100    92241182.074 1       501.831
G01  24652001.080   129547069.390 5     -3543.748    24652001.680   129547069.395 5     -3543.748    24652013.660   100945759.413 5     -2761.362
R19  19913831.840   106525528.810 6      -763.350    19913836.420    82853230.254 7      -593.717
C36  25455490.780   132553452.684 7      3248.103    25455505.180    99892909.124 8      2447.784
C11  23843935.580   124161642.247 7      1594.343                                                    23843939.520    96009678.850 8      1232.847
G19  22643928.780   118994624.961 7     -1873.456    22643927.700   118994624.968 5     -1873.456    22643931.280    92723084.555 5     -1459.835
G04  20610677.060   108309859.508 8      1359.150    20610676.580   108309859.518 7      1359.150    20610680.440    84397308.399 7      1059.078
C16  39421034.940   205275675.096 4      -581.560                                                    39421048.340   158732187.118 6      -449.699
C22  21989959.160   114507486.864 8      -168.833    21989958.600    86293317.566 8      -127.234
E15  24101944.640   126656577.836 7      1487.886    24101951.480    94581241.415 1      1111.084
G31  23142414.740   121614206.913 7     -1377.905    23142414.380   121614206.905 6     -1377.905    23142419.540    94764326.524 6     -1073.692
G11  24354138.780   127981863.024 7      4033.546    24354138.560   127981863.006 5      4033.546    24354144.340    99726160.722 5      3143.023
C19  25114345.800   130776952.339 7     -2478.875    25114351.140    98554061.169 7     -1868.091
C21  23235881.220   120995357.533 8      2812.963    23235883.140    91182634.319 8      2119.861
C12  23554863.580   122656330.539 7     -1574.808                                                    23554867.300    94845661.547 8     -1217.742
E13  27773735.220   145951959.354 5      3524.263    27773745.360   108990143.313 6      2631.755
C05  40405701.700   210403089.340 6       449.435                                                    40405708.600   162697024.869 6       347.531
E03  25850109.980   135843282.188 7      3141.973    25850117.740   101441454.758 8      2346.279
R20  21963858.880   117450640.292 6      3991.061    21963865.600    91350522.467 6      3104.159
C09  38281174.940   199340112.549 7       107.387                                                    38281178.400   154142431.928 8        83.038
R12  21865785.540   116803168.939 8      1566.346    21865791.840    90846934.421 7      1218.269
C06  38556601.540   200774322.793 7      -437.737                                                    38556603.160   155251444.795 7      -338.486
G09  22142048.460   116357295.006 8      3513.237    22142048.580   116357295.003 8      3513.237    22142055.340    90668043.932 8      2737.587
> 2022 09 29 11 00 20.0000000  0 34
C34  23315846.380   121411728.340 8        85.341    23315850.220    91496406.736 8        64.313
G06  21707877.980   114075690.969 7      2595.958    21707878.140   114075690.966 6      2595.958    21707884.540    88890167.215 6      2022.825
G03  21491526.320   112938708.502 8     -1920.674    21491526.300   112938708.518 8     -1920.674    21491532.160    88004194.805 8     -1496.629
E34  24455618.300   128515128.690 8     -1521.892    24455625.100    95969103.792 1     -1136.478
R18  22037933.800   117639940.456 7     -3720.378    22037940.880    91497733.511 7     -2893.627
R13  23169713.620   123724989.505 5      4393.071    23169720.200    96230565.686 6      3416.833
R03  19431921.600   104020594.990 8      -646.506    19431924.780    80904918.331 8      -502.838
R02  22759344.060   121448175.027 8     -3318.929    22759351.120    94459696.554 7     -2581.390
E09  25890528.900   136055623.034 7     -1888.586    25890536.280   101599993.574 1     -1410.308
R04  20333389.960   108884442.994 8      3115.324    20333394.200    84687925.681 8      2423.030
R11  23282163.060   124412809.896 6     -2305.146    23282169.000    96765526.624 6     -1792.891
E05  23504357.480   123516234.743 8       668.799    23504363.520    92236176.371 1       499.428
G01  24658745.080   129582506.937 6     -3543.723    24658745.840   129582506.950 5     -3543.723    24658757.360   100973373.024 5     -2761.343
R19  19915266.800   106533205.298 6      -771.647    19915271.260    82859200.831 7      -600.170
C36  25449255.660   132520983.476 7      3246.025    25449269.840    99868440.230 7      2446.218
C11  23840878.260   124145724.119 7      1589.458                                                    23840882.480    95997369.955 8      1229.070
G19  22647498.700   119013385.479 7     -1878.388    22647497.540   119013385.463 5     -1878.388    22647500.920    92737703.096 5     -1463.679
G04  20608095.660   108296295.271 8      1353.816    20608095.580   108296295.281 7      1353.816    20608099.380    84386738.857 7      1054.922
C16  39422157.320   205281489.861 4      -580.922                                                    39422164.920   158736683.574 6      -449.205
C22  21990286.900   114509193.216 8      -172.272    21990286.220    86294603.482 8      -129.825
E15  24099116.860   126641718.548 7      1484.109    24099123.940    94570145.203 1      1108.264
G31  23145042.500   121628014.064 7     -1383.475    23145042.160   121628014.069 6     -1383.475    23145046.980    94775085.329 6     -1078.032
G11  24346464.960   127941536.313 7      4032.078    24346464.880   127941536.300 5      4032.078    24346470.420    99694737.335 5      3141.879
C19  25119107.300   130801746.035 7     -2479.647    25119112.500    98572745.762 7     -1868.672
C21  23230481.340   120967240.042 8      2810.744    23230483.560    91161444.869 8      2118.189
C12  23557891.740   122672100.101 7     -1578.886                                                    23557895.560    94857855.550 8     -1220.895
E13  27767029.140   145916720.836 5      3523.693    27767039.500   108963828.865 6      2631.329
C05  40404839.060   210398593.801 6       450.097                                                    40404845.380   162693548.647 6       348.044
E03  25844132.920   135811871.288 7      3140.357    25844140.380   101417998.590 8      2345.071
R20  21956399.720   117410754.587 6      3986.253    21956407.160    91319500.243 6      3100.419
C09  38280969.160   199339041.491 7       106.941                                                    38280972.940   154141603.702 8        82.693
R12  21862861.940   116787547.495 8      1558.198    21862867.440    90834784.414 7      1211.932
C06  38557442.440   200778702.546 7      -438.009                                                    38557444.220   155254831.480 7      -338.697
G09  22135366.500   116322179.576 8      3510.157    22135366.140   116322179.573 8      3510.157    22135373.040    90640681.277 8      2735.187
> 2022 09 29 11 00 30.0000000  0 35
C34  23315688.700   121410907.819 8        79.214    23315692.700    91495788.374 8        59.696
G06  21702943.220   114049761.754 7      2590.403    21702943.640   114049761.751 6      2590.403    21702950.180    88869962.632 6      2018.496
G03  21495185.600   112957937.833 8     -1924.753    21495185.440   112957937.843 8     -1924.753    21495191.300    88019178.680 8     -1499.807
E34  24458518.540   128530370.568 7     -1526.016    24458525.340    95980485.694 1     -1139.558
R18  22044907.720   117677167.400 7     -3724.518    22044914.640    91526687.753 8     -2896.847
R13  23161491.420   123681081.301 5      4389.005    23161498.040    96196414.933 6      3413.670
R03  19433135.500   104027093.713 8      -652.781    19433138.620    80909972.893 8      -507.719
R02  22765565.820   121481374.749 8     -3320.525    22765572.540    94485518.497 7     -2582.631
E09  25894125.100   136074521.926 7     -1890.780    25894132.240   101614106.353 1     -1411.946
R04  20327577.800   108853318.046 8      3110.087    20327581.640    84663717.382 8      2418.957
R11  23286483.300   124435897.720 6     -2311.904    23286489.420    96783483.710 6     -1798.147
E05  23503089.400   123509569.876 8       664.585    23503095.260    92231199.360 1       496.281
G01  24665490.260   129617950.717 6     -3544.675    24665490.280   129617950.724 5     -3544.675    24665502.640   101000991.491 5     -2762.085
R19  19916718.000   106540972.409 6      -781.243    19916723.360    82865241.907 7      -607.634
C36  25443025.420   132488541.575 7      3242.901    25443039.760    99843991.910 7      2443.864
C11  23837830.840   124129861.689 7      1583.560                                                    23837836.040    95985104.117 8      1224.509
G19  22651079.540   119032201.370 7     -1884.429    22651078.120   119032201.357 5     -1884.429    22651081.080    92752364.810 5     -1468.386
G04  20605525.760   108282790.292 8      1347.633    20605525.680   108282790.297 7      1347.633    20605529.620    84376215.489 7      1050.104
C16  39423274.240   205287309.836 4      -582.375                                                    39423283.080   158741184.826 6      -450.329
C22  21990622.340   114510940.075 8      -176.636    21990621.600    86295919.923 8      -133.113
E15  24096297.480   126626902.646 7      1479.529    24096304.400    94559081.390 1      1104.843
G31  23147681.420   121641882.237 7     -1389.840    23147681.020   121641882.255 6     -1389.840    23147685.720    94785891.693 6     -1082.992
E31  28047943.720   147392947.566 4      2736.163    28047957.160   110066202.553 5      2043.239
G11  24338794.920   127901229.406 7      4029.771    24338794.760   127901229.395 5      4029.771    24338800.520    99663329.376 5      3140.081
C19  25123871.040   130826551.983 7     -2481.093    25123876.100    98591439.599 7     -1869.762
C21  23225087.200   120939150.660 8      2807.612    23225089.300    91140276.601 8      2115.828
C12  23560928.240   122687916.869 7     -1584.038                                                    23560932.820    94870086.050 8     -1224.878
E13  27760326.380   145881494.404 5      3522.166    27760335.680   108937523.409 6      2630.189
C05  40403976.000   210394097.156 6       449.872                                                    40403981.520   162690071.558 6       347.869
E03  25838159.440   135780480.499 7      3138.130    25838166.720   101394557.426 8      2343.409
R20  21948951.660   117370923.321 6      3980.431    21948958.440    91288520.395 6      3095.890
C09  38280765.040   199337981.217 7       105.561                                                    38280769.440   154140783.822 8        81.627
R12  21859954.160   116772014.085 8      1549.029    21859959.720    90822702.876 8      1204.800
C06  38558284.880   200783090.495 7      -439.132                                                    38558287.100   155258224.480 7      -339.565
G09  22128690.980   116287100.504 8      3506.218    22128690.840   116287100.498 8      3506.218    22128697.680    90613346.945 8      2732.118
