     3.05           OBSERVATION DATA    M                   RINEX VERSION / TYPE
TPS2RIN 1.0.28.3459 Kamilla Brynildsen  20221006 134421 UTC PGM / RUN BY / DATE
Win64 build Jun 01, 2022 (c) Topcon Positioning Systems     COMMENT
SRC: PPR3_290922.tps                                        COMMENT
OPT: -s 29092022d110000 -f 30092022d045959 -I 10            COMMENT
OPT: -p PPR3_290922.ini                                     COMMENT
GMGD320 2022        NMBU                                    OBSERVER / AGENCY
01FOIKIJBB6         TPS HIPER_VR        5.4+2105281211      REC # / TYPE / VERS
SN: 1451-12216                                              COMMENT
1451-12216          TPSHIPER_VR     NONE                    ANT # / TYPE
        1.3142        0.0000        0.0000                  ANTENNA: DELTA H/E/N
K004                                                        MARKER NAME
  3172507.4901   603208.4428  5481884.1614                  APPROX POSITION XYZ
  2022     9    29    11     0   50.0000001     GPS         TIME OF FIRST OBS
  2022     9    30     4    59   50.0000010     GPS         TIME OF LAST OBS
    10.000                                                  INTERVAL
  6480 EPOCHS                                               COMMENT
G   27 C1C L1C D1C C1W L1W D1W C1X L1X D1X C1Y L1Y D1Y C1Z  SYS / # / OBS TYPES
       C2C L2C D2C C2W L2W D2W C2X L2X D2X C2Y L2Y D2Y C2Z  SYS / # / OBS TYPES
       C3C                                                  SYS / # / OBS TYPES
R    6 C1C L1C D1C C2C L2C D2C                              SYS / # / OBS TYPES
E    6 C1X L1X D1X C5X L5X D5X                              SYS / # / OBS TYPES
C    9 C2I L2I D2I C5P L5P D5P C7I L7I D7I                  SYS / # / OBS TYPES
   102                                                      # OF SATELLITES
   G02  2134  2134  2134  2021  2021  2021  2024  2024  2024PRN / # OF OBS
   G03   724   724   724   724   724   724   724   724   724PRN / # OF OBS
   G04  1565  1565  1565  1545  1545  1545  1545  1545  1545PRN / # OF OBS
   G05  1365  1365  1365  1360  1360  1360  1360  1360  1360PRN / # OF OBS
   G06  1585  1585  1585  1585  1585  1585  1585  1585  1585PRN / # OF OBS
   G07  2279  2279  2279  2256  2256  2256  2255  2255  2255PRN / # OF OBS
   G08   560   560   560   556   556   556   555   555   555PRN / # OF OBS
   G09  1900  1900  1900  1892  1892  1892  1893  1893  1893PRN / # OF OBS
   G10  1454  1454  1454  1403  1403  1403  1404  1404  1404PRN / # OF OBS
   G11  2037  2037  2037  1981  1981  1981  1984  1984  1984PRN / # OF OBS
   G12  1879  1879  1879  1879  1879  1879  1879  1879  1879PRN / # OF OBS
   G13  1812  1812  1812  1703  1703  1703  1692  1692  1692PRN / # OF OBS
   G14  1101  1101  1101  1004  1004  1004  1002  1002  1002PRN / # OF OBS
   G15  1758  1758  1758  1744  1744  1744  1746  1746  1746PRN / # OF OBS
   G16  1700  1700  1700  1659  1659  1659  1657  1657  1657PRN / # OF OBS
   G17   869   869   869   859   859   859   859   859   859PRN / # OF OBS
   G18  2215  2215  2215  2153  2153  2153  2154  2154  2154PRN / # OF OBS
   G19  1226  1226  1226  1168  1168  1168  1164  1164  1164PRN / # OF OBS
   G20  1786  1786  1786  1736  1736  1736  1739  1739  1739PRN / # OF OBS
   G21   149   149   149   148   148   148   148   148   148PRN / # OF OBS
   G22  1111  1111  1111  1073  1073  1073  1069  1069  1069PRN / # OF OBS
   G23  1931  1931  1931  1858  1858  1858  1851  1851  1851PRN / # OF OBS
   G24  1685  1685  1685  1680  1680  1680  1680  1680  1680PRN / # OF OBS
   G25  1940  1940  1940  1939  1939  1939  1939  1939  1939PRN / # OF OBS
   G26  1696  1696  1696  1694  1694  1694  1694  1694  1694PRN / # OF OBS
   G27  1067  1067  1067  1067  1067  1067  1067  1067  1067PRN / # OF OBS
   G29  2204  2204  2204  2197  2197  2197  2197  2197  2197PRN / # OF OBS
   G30  2104  2104  2104  2088  2088  2088  2088  2088  2088PRN / # OF OBS
   G31  1378  1378  1378  1378  1378  1378  1378  1378  1378PRN / # OF OBS
   G32  1240  1240  1240  1204  1204  1204  1205  1205  1205PRN / # OF OBS
   R01  1585  1585  1585  1556  1556  1556                  PRN / # OF OBS
   R02  1158  1158  1158  1144  1144  1144                  PRN / # OF OBS
   R03  1431  1431  1431  1421  1421  1421                  PRN / # OF OBS
   R04  1907  1907  1907  1857  1857  1857                  PRN / # OF OBS
   R05  2121  2121  2121  2091  2091  2091                  PRN / # OF OBS
   R06  1338  1338  1338     0     0     0                  PRN / # OF OBS
   R07  1743  1743  1743  1722  1722  1722                  PRN / # OF OBS
   R08  1879  1879  1879  1848  1848  1848                  PRN / # OF OBS
   R09  1722  1722  1722  1719  1719  1719                  PRN / # OF OBS
   R10  1810  1810  1810     0     0     0                  PRN / # OF OBS
   R11  1821  1821  1821  1813  1813  1813                  PRN / # OF OBS
   R12  1695  1695  1695  1649  1649  1649                  PRN / # OF OBS
   R13  1539  1539  1539  1511  1511  1511                  PRN / # OF OBS
   R14  2215  2215  2215  2166  2166  2166                  PRN / # OF OBS
   R15  2038  2038  2038  1994  1994  1994                  PRN / # OF OBS
   R17   632   632   632   602   602   602                  PRN / # OF OBS
   R18   398   398   398   371   371   371                  PRN / # OF OBS
   R19   931   931   931   931   931   931                  PRN / # OF OBS
   R20  1567  1567  1567  1567  1567  1567                  PRN / # OF OBS
   R21  2204  2204  2204  2168  2168  2168                  PRN / # OF OBS
   R23  2019  2019  2019     0     0     0                  PRN / # OF OBS
   R24  1465  1465  1465  1441  1441  1441                  PRN / # OF OBS
   E01     8     8     8     7     7     7                  PRN / # OF OBS
   E02  1816  1816  1816  1808  1808  1808                  PRN / # OF OBS
   E03  2116  2116  2116  2116  2116  2116                  PRN / # OF OBS
   E04   913   913   913   913   913   913                  PRN / # OF OBS
   E05  1439  1439  1439  1439  1439  1439                  PRN / # OF OBS
   E07  2264  2264  2264  2263  2263  2263                  PRN / # OF OBS
   E08  2468  2468  2468  2455  2455  2455                  PRN / # OF OBS
   E09   779   779   779   772   772   772                  PRN / # OF OBS
   E10    56    56    56    47    47    47                  PRN / # OF OBS
   E12   278   278   278   278   278   278                  PRN / # OF OBS
   E13  3339  3339  3339  3330  3330  3330                  PRN / # OF OBS
   E15  2133  2133  2133  2121  2121  2121                  PRN / # OF OBS
   E19  1297  1297  1297  1297  1297  1297                  PRN / # OF OBS
   E21  2268  2268  2268  2262  2262  2262                  PRN / # OF OBS
   E24  1067  1067  1067  1059  1059  1059                  PRN / # OF OBS
   E25  1054  1054  1054  1053  1053  1053                  PRN / # OF OBS
   E26  2491  2491  2491  2488  2488  2488                  PRN / # OF OBS
   E27  2380  2380  2380  2377  2377  2377                  PRN / # OF OBS
   E30  2340  2340  2340  2338  2338  2338                  PRN / # OF OBS
   E31  1188  1188  1188  1185  1185  1185                  PRN / # OF OBS
   E33  1520  1520  1520  1507  1507  1507                  PRN / # OF OBS
   E34  1201  1201  1201  1194  1194  1194                  PRN / # OF OBS
   E36    53    53    53    43    43    43                  PRN / # OF OBS
   C05   605   605   605     0     0     0   605   605   605PRN / # OF OBS
   C07   930   930   930     0     0     0   930   930   930PRN / # OF OBS
   C08   938   938   938     0     0     0   938   938   938PRN / # OF OBS
   C09   114   114   114     0     0     0   114   114   114PRN / # OF OBS
   C10  1682  1682  1682     0     0     0  1682  1682  1682PRN / # OF OBS
   C11  1876  1876  1876     0     0     0  1867  1867  1867PRN / # OF OBS
   C12  1254  1254  1254     0     0     0  1253  1253  1253PRN / # OF OBS
   C13  1444  1444  1444     0     0     0  1428  1428  1428PRN / # OF OBS
   C14   324   324   324     0     0     0   324   324   324PRN / # OF OBS
   C19   688   688   688   684   684   684     0     0     0PRN / # OF OBS
   C20   783   783   783   783   783   783     0     0     0PRN / # OF OBS
   C21  1707  1707  1707  1702  1702  1702     0     0     0PRN / # OF OBS
   C22  1163  1163  1163  1156  1156  1156     0     0     0PRN / # OF OBS
   C23  2089  2089  2089  2085  2085  2085     0     0     0PRN / # OF OBS
   C24  2082  2082  2082  2081  2081  2081     0     0     0PRN / # OF OBS
   C25  2199  2199  2199  2195  2195  2195     0     0     0PRN / # OF OBS
   C26  1898  1898  1898  1888  1888  1888     0     0     0PRN / # OF OBS
   C27  1998  1998  1998  1985  1985  1985     0     0     0PRN / # OF OBS
   C28  2705  2705  2705  2693  2693  2693     0     0     0PRN / # OF OBS
   C29    28    28    28    23    23    23     0     0     0PRN / # OF OBS
   C30   963   963   963   953   953   953     0     0     0PRN / # OF OBS
   C32  1385  1385  1385  1383  1383  1383     0     0     0PRN / # OF OBS
   C33  2298  2298  2298  2296  2296  2296     0     0     0PRN / # OF OBS
   C34  1744  1744  1744  1739  1739  1739     0     0     0PRN / # OF OBS
   C35   287   287   287   276   276   276     0     0     0PRN / # OF OBS
   C36  1960  1960  1960  1950  1950  1950     0     0     0PRN / # OF OBS
   C37  1806  1806  1806  1806  1806  1806     0     0     0PRN / # OF OBS
G L1C                                                       SYS / PHASE SHIFT
G L1W -0.25000                                              SYS / PHASE SHIFT
G L2W  0.00000                                              SYS / PHASE SHIFT
R L1C                                                       SYS / PHASE SHIFT
R L2C                                                       SYS / PHASE SHIFT
E L1X  0.00000                                              SYS / PHASE SHIFT
E L5X  0.00000                                              SYS / PHASE SHIFT
C L2I                                                       SYS / PHASE SHIFT
C L5P  0.00000                                              SYS / PHASE SHIFT
C L7I                                                       SYS / PHASE SHIFT
 22 R01  1 R02 -4 R03  5 R04  6 R05  1 R06 -4 R07  5 R08  6 GLONASS SLOT / FRQ #
    R09 -2 R10 -7 R11  0 R12 -1 R13 -2 R14 -7 R15  0 R17  4 GLONASS SLOT / FRQ #
    R18 -3 R19  3 R20  2 R21  4 R23  3 R24  2               GLONASS SLOT / FRQ #
                                                            GLONASS COD/PHS/BIS
    18    18  2185     7GPS                                 LEAP SECONDS
                                                            END OF HEADER
> 2022 09 29 11 00  0.0000000  0 25
R13  23121980.800   123470115.81316      4018.388    23121988.000    96032343.540 6      3125.413
G03  21419831.220   112561957.965 7     -2289.116    21419831.320   112561957.962 8     -2289.116    21419837.960    87710623.655 8     -1783.727
R03  19364887.640   103661756.53628     -1017.898    19364891.080    80625821.135 8      -791.699
C22  21924988.800   114169168.845 8      -536.943    21924988.300    86038360.534 8      -404.643
E34  24384949.260   128143758.604 7     -1890.263    24384955.960    95691786.323 8     -1411.560
R18  21959064.980   117218939.699 6     -4094.798    21959072.040    91170294.525 6     -3184.843
E05  23442214.480   123189672.950 8       300.322    23442221.260    91992315.378 8       224.266
C12  23486627.580   122301020.099 7     -1941.871                                                    23486632.140    94570913.809 8     -1501.578
C21  23176036.260   120683723.669 8      2443.720    23176037.760    90947778.039 8      1841.597
G04  20548520.920   107983218.277 8       989.598    20548520.720   107983218.277 7       989.598    20548525.600    84142780.459 7       771.115
C19  25045382.520   130417850.590 7     -2849.780    25045387.460    98283441.738 7     -2147.606
G19  22575000.800   118632424.431 7     -2243.001    22575000.020   118632424.449 5     -2243.001    22575003.540    92440847.221 5     -1747.793
G17  23986401.540   126049333.132 6     -3029.235    23986402.940   126049333.129 3     -3029.235    23986406.560    98220255.523 3     -2360.443
E15  24039606.240   126328972.438 8      1116.958    24039612.340    94336611.276 8       834.092
C34  23250901.920   121073539.527 8      -275.334    23250906.080    91241550.041 8      -207.493
R02  22682676.160   121039200.945 5     -3698.446    22682682.100    94141531.513 5     -2876.569
E09  25819060.520   135680027.524 5     -2260.489    25819053.640   101319512.842 5     -1688.028
R04  20279832.260   108597600.752 8      2741.776    20279835.240    84464829.352 8      2132.492
G06  21652558.620   113784977.953 8      2230.177    21652558.840   113784977.948 6      2230.177    21652565.580    88663633.836 6      1737.800
C11  23781764.140   123837907.292 7      1228.243                                                    23781767.300    95759322.755 8       949.755
E03  25790898.320   135532114.919 7      2768.707    25790905.960   101209101.998 7      2067.541
C36  25397498.420   132251513.946 7      2878.971    25397513.100    99665343.150 8      2169.604
R20  21906239.960   117142526.627 6      3614.567    21906247.220    91110886.848 6      2811.330
G09  22083631.700   116050307.810 7      3141.337    22083631.440   116050307.820 8      3141.337    22083639.800    90428830.426 8      2447.795
R19  19847317.400   106169757.878 6     -1136.155    19847320.980    82576497.484 7      -883.676
> 2022 09 29 11 00 10.0000000  0 25
R13  23114459.500   123429949.463 6      4014.968    23114465.260    96001103.116 6      3122.753
G03  21424190.400   112584868.338 8     -2292.843    21424190.740   112584868.340 8     -2292.843    21424197.720    87728475.884 8     -1786.631
R03  19366794.660   103671964.934 8     -1023.753    19366798.220    80633760.998 8      -796.252
C22  21926023.860   114174558.539 8      -540.966    21926023.440    86042422.226 8      -407.675
E34  24388549.560   128162680.216 8     -1893.909    24388556.720    95705916.076 8     -1414.283
R18  21966740.440   117259905.906 7     -4098.391    21966746.440    91202157.078 6     -3187.638
E05  23441646.540   123186687.688 8       296.694    23441653.180    91990086.114 8       221.557
C12  23490362.240   122320461.858 7     -1946.415                                                    23490365.760    94585947.405 8     -1505.091
C21  23171346.360   120659300.471 8      2440.994    23171347.740    90929372.630 8      1839.543
G04  20546643.400   107973351.614 8       983.745    20546643.200   107973351.608 7       983.745    20546648.060    84135092.152 7       766.555
C19  25050855.620   130446353.301 7     -2850.736    25050861.260    98304921.469 7     -2148.326
G19  22579275.460   118654882.708 7     -2248.517    22579274.640   118654882.731 5     -2248.517    22579277.320    92458347.148 5     -1752.091
G17  23992167.100   126079635.535 6     -3031.209    23992166.320   126079635.534 3     -3031.209    23992173.200    98243867.673 3     -2361.981
E15  24037484.580   126317824.345 7      1112.743    24037491.080    94328286.400 8       830.944
C34  23251436.120   121076321.270 8      -281.064    23251440.560    91243646.391 8      -211.811
R02  22689604.980   121076187.181 5     -3699.133    22689611.820    94170298.571 5     -2877.103
E09  25823353.660   135702643.886 5     -2262.583    25823357.300   101336401.564 5     -1689.591
R04  20274716.140   108570206.919 8      2737.041    20274719.380    84443523.051 8      2128.810
G06  21648319.140   113762701.033 7      2225.199    21648319.020   113762701.019 6      2225.199    21648326.460    88646275.203 6      1733.921
C11  23779408.300   123825652.150 6      1222.689                                                    23779414.100    95749846.331 8       945.461
E03  25785631.680   135504438.523 7      2766.757    25785639.320   101188434.575 7      2066.085
C36  25391972.480   132222737.479 7      2876.411    25391986.900    99643657.129 8      2167.675
R20  21899485.280   117106405.702 6      3609.273    21899493.640    91082792.808 6      2807.213
G09  22077656.960   116018911.579 7      3137.939    22077656.840   116018911.582 8      3137.939    22077665.300    90404365.826 8      2445.148
R19  19849449.620   106181164.382 7     -1145.107    19849453.580    82585369.224 7      -890.639
> 2022 09 29 11 00 20.0000000  0 25
R13  23106944.020   123389822.844 6      4010.500    23106950.400    95969893.603 5      3119.278
G03  21428558.140   112607820.246 7     -2297.478    21428558.020   112607820.264 8     -2297.478    21428565.280    87746360.494 8     -1790.243
R03  19368713.200   103682236.688 8     -1030.493    19368716.740    80641750.143 8      -801.495
C22  21927067.360   114179992.208 8      -545.761    21927066.940    86046517.052 8      -411.288
E34  24392158.000   128181642.568 8     -1898.423    24392165.080    95720076.258 8     -1417.654
R18  21974421.620   117300912.538 6     -4102.923    21974427.220    91234051.084 6     -3191.162
E05  23441086.740   123183744.366 8       292.078    23441093.020    91987888.177 8       218.110
C12  23494106.060   122339954.464 7     -1951.981                                                    23494109.180    94601020.274 8     -1509.396
C21  23166662.580   120634908.821 8      2437.451    23166663.820    90910990.991 8      1836.873
G04  20544777.900   107963547.681 8       977.060    20544777.600   107963547.688 7       977.060    20544782.420    84127452.734 7       761.346
C19  25056332.240   130474871.798 7     -2852.699    25056337.800    98326413.095 7     -2149.806
G19  22583561.360   118677399.994 7     -2254.898    22583559.800   118677400.017 5     -2254.898    22583562.720    92475893.081 5     -1757.063
G17  23997938.020   126109962.213 6     -3034.104    23997938.500   126109962.215 3     -3034.104    23997943.120    98267498.826 3     -2364.237
E15  24035372.080   126306723.135 8      1107.521    24035378.700    94319996.537 8       827.045
C34  23251982.200   121079164.797 7      -287.573    23251986.760    91245789.297 8      -216.716
R02  22696539.360   121113190.847 5     -3701.591    22696546.220    94199079.285 5     -2879.016
E09  25827661.400   135725282.776 5     -2264.816    25827666.620   101353307.195 5     -1691.259
R04  20269609.580   108542865.268 8      2731.368    20269613.680    84422257.357 8      2124.397
G06  21644089.520   113740478.936 7      2219.219    21644090.160   113740478.940 6      2219.219    21644098.300    88628959.297 6      1729.262
C11  23777065.800   123813456.143 6      1216.466                                                    23777071.860    95740415.628 8       940.649
E03  25780369.360   135476785.754 7      2763.996    25780377.380   101167784.813 7      2064.023
C36  25386452.260   132193991.724 7      2872.858    25386466.320    99621994.225 8      2164.998
R20  21892742.160   117070342.886 6      3603.306    21892748.980    91054743.955 6      2802.571
G09  22071690.460   115987555.179 7      3133.413    22071690.380   115987555.169 8      3133.413    22071698.120    90379932.272 8      2441.621
R19  19851599.420   106192665.250 6     -1155.033    19851604.020    82594314.331 7      -898.359
> 2022 09 30 04 59 40.0000000  0 22
R17  19752796.820   105701246.487 8      2412.627    19752799.280    82212065.141 8      1876.488
G10  21009378.420   110405029.653 8      1259.604    21009378.260   110405029.650 9      1259.604    21009382.260    86029905.905 9       981.510
G21  22940705.340   120554236.857 7      3005.510    22940704.660   120554236.854 4      3005.510    22940706.280    93938361.159 4      2341.956
E24  25786834.260   135510731.580 6      1295.970    25786834.720   101193078.668 7       967.770
R15  21214169.080   113362115.750 7     -2484.708    21214170.840    88170501.840 7     -1932.551
E26  24404331.140   128245637.604 8     -1412.091    24404332.760    95767859.448 8     -1054.483
C27  22609479.500   117733532.457 8     -2011.596    22609479.760    88724463.489 8     -1515.947
C36  25478726.160   132674466.728 6     -2710.344    25478734.560    99984020.619 7     -2042.526
E31  24943562.860   131079349.989 7     -1459.282    24943567.140    97883940.696 8     -1089.724
E07  26488704.220   139199103.824 6      2253.696    26488710.020   103947430.751 7      1682.955
R23  22821844.340   122081458.127 7     -3674.709
E33  23594478.240   123989834.925 7      1216.689    23594479.740    92589840.133 8       908.566
C05  40058181.580   208593453.592 5       137.145                                                    40058182.640   161297677.834 6       106.050
G18  23919920.500   125700027.070 7     -3368.076    23919920.280   125700027.072 5     -3368.076    23919923.320    97948076.817 5     -2624.474
G23  21218536.360   111504178.759 7     -1020.057    21218536.380   111504178.767 6     -1020.057    21218538.280    86886373.764 6      -794.849
G27  20164698.680   105966211.317 8      -998.419    20164698.580   105966211.327 8      -998.419    20164702.400    82571079.920 8      -777.989
C29  25094632.300   130674297.430 6      3227.674    25094644.840    98476694.993 5      2432.389
R01  20637134.980   110317333.258 8      2568.705    20637138.000    85802355.188 7      1997.882
G08  20776834.180   109183015.315 8      1639.484    20776833.840   109183015.296 6      1639.484    20776837.160    85077672.566 6      1277.520
C30  21623874.500   112601228.127 8       986.060    21623876.520    84856774.506 8       743.099
R24  19459010.120   104056186.093 8     -1503.109    19459012.400    80932604.597 8     -1169.085
G16  23682456.580   124452186.629 5     -3640.089
> 2022 09 30 04 59 50.0000000  0 22
R17  19748293.300   105677143.913 8      2407.719    19748294.840    82193318.682 8      1872.670
G10  21006987.520   110392465.010 8      1253.245    21006987.100   110392465.004 8      1253.245    21006991.420    86020115.268 8       976.555
G21  22934988.840   120524194.471 7      3002.856    22934988.780   120524194.463 4      3002.856    22934989.160    93914951.512 4      2339.888
E24  25784372.780   135497794.991 7      1291.258    25784372.900   101183418.232 7       964.251
R15  21218826.140   113387000.315 8     -2492.313    21218827.740    88189856.482 7     -1938.466
E26  24407020.960   128259771.931 8     -1414.886    24407022.440    95778414.293 8     -1056.571
C27  22613345.620   117753664.481 8     -2014.941    22613345.960    88739635.055 8     -1518.468
C36  25483932.860   132701581.683 6     -2712.899    25483941.480   100004454.537 7     -2044.452
E31  24946343.860   131093964.214 7     -1463.718    24946348.220    97894853.902 8     -1093.036
E07  26484418.960   139176583.514 6      2250.181    26484424.480   103930613.628 7      1680.330
R23  22828714.660   122118213.692 7     -3676.483
E33  23592166.140   123977683.354 7      1213.434    23592167.420    92580765.899 8       906.136
C05  40057918.760   208592082.226 5       137.262                                                    40057919.200   161296617.401 6       106.140
G18  23926330.920   125733714.675 7     -3369.591    23926330.840   125733714.674 5     -3369.591    23926334.100    97974326.866 5     -2625.655
G23  21220483.900   111514412.274 7     -1026.677    21220483.820   111514412.284 6     -1026.677    21220485.780    86894347.922 5      -800.008
G27  20166604.760   105976224.364 8     -1004.358    20166604.200   105976224.361 8     -1004.358    20166607.840    82578882.280 8      -782.616
C29  25088430.760   130642025.963 6      3226.548    25088451.700    98452375.037 5      2431.540
R01  20632336.640   110291686.275 7      2560.566    20632340.540    85782407.547 7      1991.552
G08  20773719.660   109166646.762 8      1634.099    20773719.240   109166646.752 6      1634.099    20773722.100    85064917.852 6      1273.324
C30  21621984.920   112591388.198 8       981.774    21621986.940    84849359.094 8       739.869
R24  19461826.280   104071244.714 8     -1508.678    19461828.480    80944316.843 8     -1173.416
G16  23689386.840   124488601.051 5     -3642.375    23689386.540   124488601.129 1     -3642.375
